{                                                                                
"features": [
{ "type": "Feature", "properties": { "POLYTYPE": 1, "PROV_CODE": 65, "AMP_CODE": 7, "TAM_CODE": 3, "PROV_NAMT": "พิษณุโลก", "PROV_NAME": "PHITSANULOK", "AMP_NAMT": "วัดโบสถ์", "AMP_NAME": "WAT BOT", "TAM_NAMT": "ท้อแท้", "TAM_NAME": "THO THAE", "YEAR": 2007, "MALE": 2213, "FEMALE": 2297, "TOTAL": 4510, "HOUSE": 1320, "VERSION": "10.2" }, "geometry": { "type": "Point", "coordinates": [ 100.29424532227243, 16.980435487535534 ] } },
{ "type": "Feature", "properties": { "POLYTYPE": 1, "PROV_CODE": 65, "AMP_CODE": 1, "TAM_CODE": 3, "PROV_NAMT": "พิษณุโลก", "PROV_NAME": "PHITSANULOK", "AMP_NAMT": "เมืองพิษณุโลก", "AMP_NAME": "MUEANG PHITSANULOK", "TAM_NAMT": "วัดจันทร์", "TAM_NAME": "WAT CHAN", "YEAR": 2007, "MALE": 3118, "FEMALE": 3437, "TOTAL": 6555, "HOUSE": 2691, "VERSION": "10.2" }, "geometry": { "type": "Point", "coordinates": [ 100.22356717207181, 16.809028440703127 ] } },
{ "type": "Feature", "properties": { "POLYTYPE": 1, "PROV_CODE": 65, "AMP_CODE": 5, "TAM_CODE": 9, "PROV_NAMT": "พิษณุโลก", "PROV_NAME": "PHITSANULOK", "AMP_NAMT": "บางกระทุ่ม", "AMP_NAME": "BANG KRATHUM", "TAM_NAMT": "วัดตายม", "TAM_NAME": "WAT TA YOM", "YEAR": 2007, "MALE": 2254, "FEMALE": 2346, "TOTAL": 4600, "HOUSE": 1400, "VERSION": "10.2" }, "geometry": { "type": "Point", "coordinates": [ 100.44521675365831, 16.593470981393029 ] } },
{ "type": "Feature", "properties": { "POLYTYPE": 1, "PROV_CODE": 65, "AMP_CODE": 1, "TAM_CODE": 12, "PROV_NAMT": "พิษณุโลก", "PROV_NAME": "PHITSANULOK", "AMP_NAMT": "เมืองพิษณุโลก", "AMP_NAME": "MUEANG PHITSANULOK", "TAM_NAMT": "จอมทอง", "TAM_NAME": "CHOM THONG", "YEAR": 2007, "MALE": 1721, "FEMALE": 1906, "TOTAL": 3627, "HOUSE": 1202, "VERSION": "10.2" }, "geometry": { "type": "Point", "coordinates": [ 100.22090305700735, 16.891517844994517 ] } },
{ "type": "Feature", "properties": { "POLYTYPE": 1, "PROV_CODE": 65, "AMP_CODE": 1, "TAM_CODE": 19, "PROV_NAMT": "พิษณุโลก", "PROV_NAME": "PHITSANULOK", "AMP_NAMT": "เมืองพิษณุโลก", "AMP_NAME": "MUEANG PHITSANULOK", "TAM_NAMT": "ไผ่ขอดอน", "TAM_NAME": "PHAI KHO DON", "YEAR": 2007, "MALE": 1952, "FEMALE": 2105, "TOTAL": 4057, "HOUSE": 1332, "VERSION": "10.2" }, "geometry": { "type": "Point", "coordinates": [ 100.17793664272872, 16.902997291650557 ] } },
{ "type": "Feature", "properties": { "POLYTYPE": 1, "PROV_CODE": 65, "AMP_CODE": 5, "TAM_CODE": 5, "PROV_NAMT": "พิษณุโลก", "PROV_NAME": "PHITSANULOK", "AMP_NAMT": "บางกระทุ่ม", "AMP_NAME": "BANG KRATHUM", "TAM_NAMT": "ท่าตาล", "TAM_NAME": "THA TAN", "YEAR": 2007, "MALE": 3338, "FEMALE": 3539, "TOTAL": 6877, "HOUSE": 1898, "VERSION": "10.2" }, "geometry": { "type": "Point", "coordinates": [ 100.32527266977236, 16.665631649278545 ] } },
{ "type": "Feature", "properties": { "POLYTYPE": 1, "PROV_CODE": 65, "AMP_CODE": 4, "TAM_CODE": 11, "PROV_NAMT": "พิษณุโลก", "PROV_NAME": "PHITSANULOK", "AMP_NAMT": "บางระกำ", "AMP_NAME": "BANG RAKAM", "TAM_NAMT": "คุยม่วง", "TAM_NAME": "KHUI MUANG", "YEAR": 2007, "MALE": 3446, "FEMALE": 3484, "TOTAL": 6930, "HOUSE": 2009, "VERSION": "10.2" }, "geometry": { "type": "Point", "coordinates": [ 99.980076707003064, 16.822486570638699 ] } },
{ "type": "Feature", "properties": { "POLYTYPE": 1, "PROV_CODE": 65, "AMP_CODE": 6, "TAM_CODE": 6, "PROV_NAMT": "พิษณุโลก", "PROV_NAME": "PHITSANULOK", "AMP_NAMT": "พรหมพิราม", "AMP_NAME": "PHROM PHIRAM", "TAM_NAMT": "ศรีภิรมย์", "TAM_NAME": "SI PHIROM", "YEAR": 2007, "MALE": 3742, "FEMALE": 3925, "TOTAL": 7667, "HOUSE": 2304, "VERSION": "10.2" }, "geometry": { "type": "Point", "coordinates": [ 100.07644145244731, 17.120028379395642 ] } },
{ "type": "Feature", "properties": { "POLYTYPE": 1, "PROV_CODE": 65, "AMP_CODE": 5, "TAM_CODE": 6, "PROV_NAMT": "พิษณุโลก", "PROV_NAME": "PHITSANULOK", "AMP_NAMT": "บางกระทุ่ม", "AMP_NAME": "BANG KRATHUM", "TAM_NAMT": "ไผ่ล้อม", "TAM_NAME": "PHAI LOM", "YEAR": 2007, "MALE": 2317, "FEMALE": 2328, "TOTAL": 4645, "HOUSE": 1434, "VERSION": "10.2" }, "geometry": { "type": "Point", "coordinates": [ 100.34633782101709, 16.557403235468382 ] } },
{ "type": "Feature", "properties": { "POLYTYPE": 1, "PROV_CODE": 65, "AMP_CODE": 9, "TAM_CODE": 4, "PROV_NAMT": "พิษณุโลก", "PROV_NAME": "PHITSANULOK", "AMP_NAMT": "เนินมะปราง", "AMP_NAME": "NOEN MAPRANG", "TAM_NAMT": "วังโพรง", "TAM_NAME": "WANG PHRONG", "YEAR": 2007, "MALE": 3661, "FEMALE": 3731, "TOTAL": 7392, "HOUSE": 2517, "VERSION": "10.2" }, "geometry": { "type": "Point", "coordinates": [ 100.65811714669377, 16.380961217861255 ] } },
{ "type": "Feature", "properties": { "POLYTYPE": 1, "PROV_CODE": 65, "AMP_CODE": 8, "TAM_CODE": 5, "PROV_NAMT": "พิษณุโลก", "PROV_NAME": "PHITSANULOK", "AMP_NAMT": "วังทอง", "AMP_NAME": "WANG THONG", "TAM_NAMT": "วังพิกุล", "TAM_NAME": "WANG PHIKUN", "YEAR": 2007, "MALE": 4085, "FEMALE": 4221, "TOTAL": 8306, "HOUSE": 2470, "VERSION": "10.2" }, "geometry": { "type": "Point", "coordinates": [ 100.35235947964772, 16.766750117293469 ] } },
{ "type": "Feature", "properties": { "POLYTYPE": 1, "PROV_CODE": 65, "AMP_CODE": 6, "TAM_CODE": 1, "PROV_NAMT": "พิษณุโลก", "PROV_NAME": "PHITSANULOK", "AMP_NAMT": "พรหมพิราม", "AMP_NAME": "PHROM PHIRAM", "TAM_NAMT": "พรหมพิราม", "TAM_NAME": "PHROM PHIRAM", "YEAR": 2007, "MALE": 6657, "FEMALE": 6928, "TOTAL": 13585, "HOUSE": 4194, "VERSION": "10.2" }, "geometry": { "type": "Point", "coordinates": [ 100.17867092788809, 17.020232635416814 ] } },
{ "type": "Feature", "properties": { "POLYTYPE": 1, "PROV_CODE": 65, "AMP_CODE": 5, "TAM_CODE": 1, "PROV_NAMT": "พิษณุโลก", "PROV_NAME": "PHITSANULOK", "AMP_NAMT": "บางกระทุ่ม", "AMP_NAME": "BANG KRATHUM", "TAM_NAMT": "บางกระทุ่ม", "TAM_NAME": "BANG KRATHUM", "YEAR": 2007, "MALE": 2660, "FEMALE": 2718, "TOTAL": 5378, "HOUSE": 1477, "VERSION": "10.2" }, "geometry": { "type": "Point", "coordinates": [ 100.29089252701669, 16.584344303705961 ] } },
{ "type": "Feature", "properties": { "POLYTYPE": 1, "PROV_CODE": 65, "AMP_CODE": 2, "TAM_CODE": 3, "PROV_NAMT": "พิษณุโลก", "PROV_NAME": "PHITSANULOK", "AMP_NAMT": "นครไทย", "AMP_NAME": "NAKHON THAI", "TAM_NAMT": "บ้านแยง", "TAM_NAME": "BAN YAENG", "YEAR": 2007, "MALE": 4654, "FEMALE": 4451, "TOTAL": 9105, "HOUSE": 3388, "VERSION": "10.2" }, "geometry": { "type": "Point", "coordinates": [ 100.78854574855087, 16.902275818170143 ] } },
{ "type": "Feature", "properties": { "POLYTYPE": 1, "PROV_CODE": 65, "AMP_CODE": 2, "TAM_CODE": 10, "PROV_NAMT": "พิษณุโลก", "PROV_NAME": "PHITSANULOK", "AMP_NAMT": "นครไทย", "AMP_NAME": "NAKHON THAI", "TAM_NAMT": "บ้านพร้าว", "TAM_NAME": "BAN PHRAO", "YEAR": 2007, "MALE": 3207, "FEMALE": 3147, "TOTAL": 6354, "HOUSE": 1891, "VERSION": "10.2" }, "geometry": { "type": "Point", "coordinates": [ 100.75748643121784, 17.156193808251832 ] } },
{ "type": "Feature", "properties": { "POLYTYPE": 1, "PROV_CODE": 65, "AMP_CODE": 4, "TAM_CODE": 8, "PROV_NAMT": "พิษณุโลก", "PROV_NAME": "PHITSANULOK", "AMP_NAMT": "บางระกำ", "AMP_NAME": "BANG RAKAM", "TAM_NAMT": "นิคมพัฒนา", "TAM_NAME": "NIKHOM PHATTHANA", "YEAR": 2007, "MALE": 4012, "FEMALE": 4096, "TOTAL": 8108, "HOUSE": 2527, "VERSION": "10.2" }, "geometry": { "type": "Point", "coordinates": [ 99.924590723653537, 16.74715371799444 ] } },
{ "type": "Feature", "properties": { "POLYTYPE": 1, "PROV_CODE": 65, "AMP_CODE": 6, "TAM_CODE": 2, "PROV_NAMT": "พิษณุโลก", "PROV_NAME": "PHITSANULOK", "AMP_NAMT": "พรหมพิราม", "AMP_NAME": "PHROM PHIRAM", "TAM_NAMT": "ท่าช้าง", "TAM_NAME": "THA CHANG", "YEAR": 2007, "MALE": 4569, "FEMALE": 4770, "TOTAL": 9339, "HOUSE": 2632, "VERSION": "10.2" }, "geometry": { "type": "Point", "coordinates": [ 100.16742067229129, 16.969475552519125 ] } },
{ "type": "Feature", "properties": { "POLYTYPE": 1, "PROV_CODE": 65, "AMP_CODE": 8, "TAM_CODE": 7, "PROV_NAMT": "พิษณุโลก", "PROV_NAME": "PHITSANULOK", "AMP_NAMT": "วังทอง", "AMP_NAME": "WANG THONG", "TAM_NAMT": "ท่าหมื่นราม", "TAM_NAME": "THA MUEN RAM", "YEAR": 2007, "MALE": 4001, "FEMALE": 4134, "TOTAL": 8135, "HOUSE": 2192, "VERSION": "10.2" }, "geometry": { "type": "Point", "coordinates": [ 100.51631109101004, 16.683619481800694 ] } },
{ "type": "Feature", "properties": { "POLYTYPE": 1, "PROV_CODE": 65, "AMP_CODE": 8, "TAM_CODE": 10, "PROV_NAMT": "พิษณุโลก", "PROV_NAME": "PHITSANULOK", "AMP_NAMT": "วังทอง", "AMP_NAME": "WANG THONG", "TAM_NAMT": "ชัยนาม", "TAM_NAME": "CHAI NAM", "YEAR": 2007, "MALE": 2968, "FEMALE": 3088, "TOTAL": 6056, "HOUSE": 1872, "VERSION": "10.2" }, "geometry": { "type": "Point", "coordinates": [ 100.46416228082801, 16.854168559617307 ] } },
{ "type": "Feature", "properties": { "POLYTYPE": 1, "PROV_CODE": 65, "AMP_CODE": 8, "TAM_CODE": 6, "PROV_NAMT": "พิษณุโลก", "PROV_NAME": "PHITSANULOK", "AMP_NAMT": "วังทอง", "AMP_NAME": "WANG THONG", "TAM_NAMT": "แก่งโสภา", "TAM_NAME": "KAENG SOPHA", "YEAR": 2007, "MALE": 5748, "FEMALE": 5776, "TOTAL": 11524, "HOUSE": 3839, "VERSION": "10.2" }, "geometry": { "type": "Point", "coordinates": [ 100.67342198154888, 16.891567096035331 ] } },
{ "type": "Feature", "properties": { "POLYTYPE": 1, "PROV_CODE": 65, "AMP_CODE": 4, "TAM_CODE": 6, "PROV_NAMT": "พิษณุโลก", "PROV_NAME": "PHITSANULOK", "AMP_NAMT": "บางระกำ", "AMP_NAME": "BANG RAKAM", "TAM_NAMT": "หนองกุลา", "TAM_NAME": "NONG KULA", "YEAR": 2007, "MALE": 7047, "FEMALE": 7079, "TOTAL": 14126, "HOUSE": 4110, "VERSION": "10.2" }, "geometry": { "type": "Point", "coordinates": [ 99.960841646630755, 16.641098229182695 ] } },
{ "type": "Feature", "properties": { "POLYTYPE": 1, "PROV_CODE": 65, "AMP_CODE": 6, "TAM_CODE": 3, "PROV_NAMT": "พิษณุโลก", "PROV_NAME": "PHITSANULOK", "AMP_NAMT": "พรหมพิราม", "AMP_NAME": "PHROM PHIRAM", "TAM_NAMT": "วงฆ้อง", "TAM_NAME": "WONG KHONG", "YEAR": 2007, "MALE": 3286, "FEMALE": 3447, "TOTAL": 6733, "HOUSE": 1894, "VERSION": "10.2" }, "geometry": { "type": "Point", "coordinates": [ 100.14409473083715, 17.118598991679271 ] } },
{ "type": "Feature", "properties": { "POLYTYPE": 1, "PROV_CODE": 65, "AMP_CODE": 2, "TAM_CODE": 5, "PROV_NAMT": "พิษณุโลก", "PROV_NAME": "PHITSANULOK", "AMP_NAMT": "นครไทย", "AMP_NAME": "NAKHON THAI", "TAM_NAMT": "นาบัว", "TAM_NAME": "NA BUA", "YEAR": 2007, "MALE": 3958, "FEMALE": 3988, "TOTAL": 7946, "HOUSE": 2250, "VERSION": "10.2" }, "geometry": { "type": "Point", "coordinates": [ 100.86627796804054, 17.217654865043038 ] } },
{ "type": "Feature", "properties": { "POLYTYPE": 1, "PROV_CODE": 65, "AMP_CODE": 6, "TAM_CODE": 4, "PROV_NAMT": "พิษณุโลก", "PROV_NAME": "PHITSANULOK", "AMP_NAMT": "พรหมพิราม", "AMP_NAME": "PHROM PHIRAM", "TAM_NAMT": "มะตูม", "TAM_NAME": "MATUM", "YEAR": 2007, "MALE": 1947, "FEMALE": 2081, "TOTAL": 4028, "HOUSE": 1462, "VERSION": "10.2" }, "geometry": { "type": "Point", "coordinates": [ 100.16572983657785, 16.925297527623833 ] } },
{ "type": "Feature", "properties": { "POLYTYPE": 1, "PROV_CODE": 65, "AMP_CODE": 8, "TAM_CODE": 4, "PROV_NAMT": "พิษณุโลก", "PROV_NAME": "PHITSANULOK", "AMP_NAMT": "วังทอง", "AMP_NAME": "WANG THONG", "TAM_NAMT": "บ้านกลาง", "TAM_NAME": "BAN KLANG", "YEAR": 2007, "MALE": 10269, "FEMALE": 9756, "TOTAL": 20025, "HOUSE": 5483, "VERSION": "10.2" }, "geometry": { "type": "Point", "coordinates": [ 100.55242420498421, 17.018452530476662 ] } },
{ "type": "Feature", "properties": { "POLYTYPE": 1, "PROV_CODE": 65, "AMP_CODE": 1, "TAM_CODE": 2, "PROV_NAMT": "พิษณุโลก", "PROV_NAME": "PHITSANULOK", "AMP_NAMT": "เมืองพิษณุโลก", "AMP_NAME": "MUEANG PHITSANULOK", "TAM_NAMT": "วังน้ำคู้", "TAM_NAME": "WANG NAM KHU", "YEAR": 2007, "MALE": 394, "FEMALE": 390, "TOTAL": 784, "HOUSE": 272, "VERSION": "10.2" }, "geometry": { "type": "Point", "coordinates": [ 100.27536525915866, 16.666268370161713 ] } },
{ "type": "Feature", "properties": { "POLYTYPE": 1, "PROV_CODE": 65, "AMP_CODE": 6, "TAM_CODE": 12, "PROV_NAMT": "พิษณุโลก", "PROV_NAME": "PHITSANULOK", "AMP_NAMT": "พรหมพิราม", "AMP_NAME": "PHROM PHIRAM", "TAM_NAMT": "ดงประคำ", "TAM_NAME": "DONG PRAKHAM", "YEAR": 2007, "MALE": 4159, "FEMALE": 4127, "TOTAL": 8286, "HOUSE": 2233, "VERSION": "10.2" }, "geometry": { "type": "Point", "coordinates": [ 100.20906321297988, 17.164056619350895 ] } },
{ "type": "Feature", "properties": { "POLYTYPE": 1, "PROV_CODE": 65, "AMP_CODE": 4, "TAM_CODE": 5, "PROV_NAMT": "พิษณุโลก", "PROV_NAME": "PHITSANULOK", "AMP_NAMT": "บางระกำ", "AMP_NAME": "BANG RAKAM", "TAM_NAMT": "บึงกอก", "TAM_NAME": "BUENG KOK", "YEAR": 2007, "MALE": 4607, "FEMALE": 4708, "TOTAL": 9315, "HOUSE": 2625, "VERSION": "10.2" }, "geometry": { "type": "Point", "coordinates": [ 100.0129387411633, 16.711744929611161 ] } },
{ "type": "Feature", "properties": { "POLYTYPE": 1, "PROV_CODE": 65, "AMP_CODE": 6, "TAM_CODE": 8, "PROV_NAMT": "พิษณุโลก", "PROV_NAME": "PHITSANULOK", "AMP_NAMT": "พรหมพิราม", "AMP_NAME": "PHROM PHIRAM", "TAM_NAMT": "วังวน", "TAM_NAME": "WANG WON", "YEAR": 2007, "MALE": 1810, "FEMALE": 1904, "TOTAL": 3714, "HOUSE": 1145, "VERSION": "10.2" }, "geometry": { "type": "Point", "coordinates": [ 100.07950740348225, 17.05138118582536 ] } },
{ "type": "Feature", "properties": { "POLYTYPE": 1, "PROV_CODE": 65, "AMP_CODE": 8, "TAM_CODE": 9, "PROV_NAMT": "พิษณุโลก", "PROV_NAME": "PHITSANULOK", "AMP_NAMT": "วังทอง", "AMP_NAME": "WANG THONG", "TAM_NAMT": "หนองพระ", "TAM_NAME": "NONG PHRA", "YEAR": 2007, "MALE": 3526, "FEMALE": 3636, "TOTAL": 7162, "HOUSE": 2003, "VERSION": "10.2" }, "geometry": { "type": "Point", "coordinates": [ 100.4381102186511, 16.683342436886658 ] } },
{ "type": "Feature", "properties": { "POLYTYPE": 1, "PROV_CODE": 65, "AMP_CODE": 1, "TAM_CODE": 14, "PROV_NAMT": "พิษณุโลก", "PROV_NAME": "PHITSANULOK", "AMP_NAMT": "เมืองพิษณุโลก", "AMP_NAME": "MUEANG PHITSANULOK", "TAM_NAMT": "บ้านคลอง", "TAM_NAME": "BAN KHLONG", "YEAR": 2007, "MALE": 6787, "FEMALE": 5286, "TOTAL": 12073, "HOUSE": 4938, "VERSION": "10.2" }, "geometry": { "type": "Point", "coordinates": [ 100.22925596847254, 16.829266535875959 ] } },
{ "type": "Feature", "properties": { "POLYTYPE": 1, "PROV_CODE": 65, "AMP_CODE": 1, "TAM_CODE": 20, "PROV_NAMT": "พิษณุโลก", "PROV_NAME": "PHITSANULOK", "AMP_NAMT": "เมืองพิษณุโลก", "AMP_NAME": "MUEANG PHITSANULOK", "TAM_NAMT": "งิ้วงาม", "TAM_NAME": "NGIO NGAM", "YEAR": 2007, "MALE": 1634, "FEMALE": 1736, "TOTAL": 3370, "HOUSE": 998, "VERSION": "10.2" }, "geometry": { "type": "Point", "coordinates": [ 100.23842883758304, 16.666479905320298 ] } },
{ "type": "Feature", "properties": { "POLYTYPE": 1, "PROV_CODE": 65, "AMP_CODE": 9, "TAM_CODE": 5, "PROV_NAMT": "พิษณุโลก", "PROV_NAME": "PHITSANULOK", "AMP_NAMT": "เนินมะปราง", "AMP_NAME": "NOEN MAPRANG", "TAM_NAMT": "บ้านน้อยซุ้มขี้เหล็ก", "TAM_NAME": "BAN NOI SUM KHI LEK", "YEAR": 2007, "MALE": 3961, "FEMALE": 4165, "TOTAL": 8126, "HOUSE": 2617, "VERSION": "10.2" }, "geometry": { "type": "Point", "coordinates": [ 100.61958183365788, 16.511517018198791 ] } },
{ "type": "Feature", "properties": { "POLYTYPE": 1, "PROV_CODE": 65, "AMP_CODE": 6, "TAM_CODE": 9, "PROV_NAMT": "พิษณุโลก", "PROV_NAME": "PHITSANULOK", "AMP_NAMT": "พรหมพิราม", "AMP_NAME": "PHROM PHIRAM", "TAM_NAMT": "หนองแขม", "TAM_NAME": "NONG KHAEM", "YEAR": 2007, "MALE": 2764, "FEMALE": 2907, "TOTAL": 5671, "HOUSE": 1652, "VERSION": "10.2" }, "geometry": { "type": "Point", "coordinates": [ 100.1824895134491, 17.062985975643823 ] } },
{ "type": "Feature", "properties": { "POLYTYPE": 1, "PROV_CODE": 65, "AMP_CODE": 4, "TAM_CODE": 2, "PROV_NAMT": "พิษณุโลก", "PROV_NAME": "PHITSANULOK", "AMP_NAMT": "บางระกำ", "AMP_NAME": "BANG RAKAM", "TAM_NAMT": "ปลักแรด", "TAM_NAME": "PLAK RAET", "YEAR": 2007, "MALE": 2057, "FEMALE": 2213, "TOTAL": 4270, "HOUSE": 1453, "VERSION": "10.2" }, "geometry": { "type": "Point", "coordinates": [ 100.09022597360064, 16.685642091461101 ] } },
{ "type": "Feature", "properties": { "POLYTYPE": 1, "PROV_CODE": 65, "AMP_CODE": 2, "TAM_CODE": 2, "PROV_NAMT": "พิษณุโลก", "PROV_NAME": "PHITSANULOK", "AMP_NAMT": "นครไทย", "AMP_NAME": "NAKHON THAI", "TAM_NAMT": "หนองกะท้าว", "TAM_NAME": "NONG KATHAO", "YEAR": 2007, "MALE": 7916, "FEMALE": 7703, "TOTAL": 15619, "HOUSE": 4664, "VERSION": "10.2" }, "geometry": { "type": "Point", "coordinates": [ 100.72102243546412, 17.061624862152076 ] } },
{ "type": "Feature", "properties": { "POLYTYPE": 1, "PROV_CODE": 65, "AMP_CODE": 1, "TAM_CODE": 15, "PROV_NAMT": "พิษณุโลก", "PROV_NAME": "PHITSANULOK", "AMP_NAMT": "เมืองพิษณุโลก", "AMP_NAME": "MUEANG PHITSANULOK", "TAM_NAMT": "พลายชุมพล", "TAM_NAME": "PHLAI CHUMPHON", "YEAR": 2007, "MALE": 2839, "FEMALE": 3081, "TOTAL": 5920, "HOUSE": 2157, "VERSION": "10.2" }, "geometry": { "type": "Point", "coordinates": [ 100.22409148075867, 16.848293783685005 ] } },
{ "type": "Feature", "properties": { "POLYTYPE": 1, "PROV_CODE": 65, "AMP_CODE": 6, "TAM_CODE": 10, "PROV_NAMT": "พิษณุโลก", "PROV_NAME": "PHITSANULOK", "AMP_NAMT": "พรหมพิราม", "AMP_NAME": "PHROM PHIRAM", "TAM_NAMT": "มะต้อง", "TAM_NAME": "MATONG", "YEAR": 2007, "MALE": 4477, "FEMALE": 4603, "TOTAL": 9080, "HOUSE": 2798, "VERSION": "10.2" }, "geometry": { "type": "Point", "coordinates": [ 100.18955104020523, 17.103096957601682 ] } },
{ "type": "Feature", "properties": { "POLYTYPE": 1, "PROV_CODE": 65, "AMP_CODE": 2, "TAM_CODE": 8, "PROV_NAMT": "พิษณุโลก", "PROV_NAME": "PHITSANULOK", "AMP_NAMT": "นครไทย", "AMP_NAME": "NAKHON THAI", "TAM_NAMT": "ยางโกลน", "TAM_NAME": "YANG KLON", "YEAR": 2007, "MALE": 2535, "FEMALE": 2495, "TOTAL": 5030, "HOUSE": 1278, "VERSION": "10.2" }, "geometry": { "type": "Point", "coordinates": [ 100.91860804000004, 17.233211586539827 ] } },
{ "type": "Feature", "properties": { "POLYTYPE": 1, "PROV_CODE": 65, "AMP_CODE": 3, "TAM_CODE": 5, "PROV_NAMT": "พิษณุโลก", "PROV_NAME": "PHITSANULOK", "AMP_NAMT": "ชาติตระการ", "AMP_NAME": "CHAT TRAKAN", "TAM_NAMT": "บ่อภาค", "TAM_NAME": "BO PHAK", "YEAR": 2007, "MALE": 4149, "FEMALE": 3906, "TOTAL": 8055, "HOUSE": 2080, "VERSION": "10.2" }, "geometry": { "type": "Point", "coordinates": [ 100.82358981123228, 17.545154232609043 ] } },
{ "type": "Feature", "properties": { "POLYTYPE": 1, "PROV_CODE": 65, "AMP_CODE": 7, "TAM_CODE": 1, "PROV_NAMT": "พิษณุโลก", "PROV_NAME": "PHITSANULOK", "AMP_NAMT": "วัดโบสถ์", "AMP_NAME": "WAT BOT", "TAM_NAMT": "วัดโบสถ์", "TAM_NAME": "WAT BOT", "YEAR": 2007, "MALE": 1202, "FEMALE": 1219, "TOTAL": 2421, "HOUSE": 760, "VERSION": "10.2" }, "geometry": { "type": "Point", "coordinates": [ 100.31994606430368, 17.003878965082468 ] } },
{ "type": "Feature", "properties": { "POLYTYPE": 1, "PROV_CODE": 65, "AMP_CODE": 7, "TAM_CODE": 6, "PROV_NAMT": "พิษณุโลก", "PROV_NAME": "PHITSANULOK", "AMP_NAMT": "วัดโบสถ์", "AMP_NAME": "WAT BOT", "TAM_NAMT": "คันโช้ง", "TAM_NAME": "KHAN CHONG", "YEAR": 2007, "MALE": 2854, "FEMALE": 2728, "TOTAL": 5582, "HOUSE": 1884, "VERSION": "10.2" }, "geometry": { "type": "Point", "coordinates": [ 100.36476738611518, 17.248537564492356 ] } },
{ "type": "Feature", "properties": { "POLYTYPE": 1, "PROV_CODE": 65, "AMP_CODE": 1, "TAM_CODE": 9, "PROV_NAMT": "พิษณุโลก", "PROV_NAME": "PHITSANULOK", "AMP_NAMT": "เมืองพิษณุโลก", "AMP_NAME": "MUEANG PHITSANULOK", "TAM_NAMT": "บ้านป่า", "TAM_NAME": "BAN PA", "YEAR": 2007, "MALE": 2685, "FEMALE": 2872, "TOTAL": 5557, "HOUSE": 1981, "VERSION": "10.2" }, "geometry": { "type": "Point", "coordinates": [ 100.35612831711215, 16.92861253087646 ] } },
{ "type": "Feature", "properties": { "POLYTYPE": 1, "PROV_CODE": 65, "AMP_CODE": 9, "TAM_CODE": 7, "PROV_NAMT": "พิษณุโลก", "PROV_NAME": "PHITSANULOK", "AMP_NAMT": "เนินมะปราง", "AMP_NAME": "NOEN MAPRANG", "TAM_NAMT": "วังยาง", "TAM_NAME": "WANG YANG", "YEAR": 2007, "MALE": 2950, "FEMALE": 2910, "TOTAL": 5860, "HOUSE": 1467, "VERSION": "10.2" }, "geometry": { "type": "Point", "coordinates": [ 100.75266668835999, 16.466522530412508 ] } },
{ "type": "Feature", "properties": { "POLYTYPE": 1, "PROV_CODE": 65, "AMP_CODE": 1, "TAM_CODE": 18, "PROV_NAMT": "พิษณุโลก", "PROV_NAME": "PHITSANULOK", "AMP_NAMT": "เมืองพิษณุโลก", "AMP_NAME": "MUEANG PHITSANULOK", "TAM_NAMT": "บึงพระ", "TAM_NAME": "BUENG PHRA", "YEAR": 2007, "MALE": 7090, "FEMALE": 7754, "TOTAL": 14844, "HOUSE": 5360, "VERSION": "10.2" }, "geometry": { "type": "Point", "coordinates": [ 100.27241231533323, 16.748163515164467 ] } },
{ "type": "Feature", "properties": { "POLYTYPE": 1, "PROV_CODE": 65, "AMP_CODE": 1, "TAM_CODE": 5, "PROV_NAMT": "พิษณุโลก", "PROV_NAME": "PHITSANULOK", "AMP_NAMT": "เมืองพิษณุโลก", "AMP_NAME": "MUEANG PHITSANULOK", "TAM_NAMT": "ท่าทอง", "TAM_NAME": "THA THONG", "YEAR": 2007, "MALE": 5853, "FEMALE": 6095, "TOTAL": 11948, "HOUSE": 4633, "VERSION": "10.2" }, "geometry": { "type": "Point", "coordinates": [ 100.20427976007301, 16.794348535654574 ] } },
{ "type": "Feature", "properties": { "POLYTYPE": 1, "PROV_CODE": 65, "AMP_CODE": 2, "TAM_CODE": 4, "PROV_NAMT": "พิษณุโลก", "PROV_NAME": "PHITSANULOK", "AMP_NAMT": "นครไทย", "AMP_NAME": "NAKHON THAI", "TAM_NAMT": "เนินเพิ่ม", "TAM_NAME": "NOEN PHOEM", "YEAR": 2007, "MALE": 6010, "FEMALE": 6134, "TOTAL": 12144, "HOUSE": 3686, "VERSION": "10.2" }, "geometry": { "type": "Point", "coordinates": [ 100.9477794077599, 17.053147263669345 ] } },
{ "type": "Feature", "properties": { "POLYTYPE": 1, "PROV_CODE": 65, "AMP_CODE": 4, "TAM_CODE": 3, "PROV_NAMT": "พิษณุโลก", "PROV_NAME": "PHITSANULOK", "AMP_NAMT": "บางระกำ", "AMP_NAME": "BANG RAKAM", "TAM_NAMT": "พันเสา", "TAM_NAME": "PHAN SAO", "YEAR": 2007, "MALE": 3007, "FEMALE": 3047, "TOTAL": 6054, "HOUSE": 1734, "VERSION": "10.2" }, "geometry": { "type": "Point", "coordinates": [ 100.06379556137718, 16.624224484391423 ] } },
{ "type": "Feature", "properties": { "POLYTYPE": 1, "PROV_CODE": 65, "AMP_CODE": 2, "TAM_CODE": 1, "PROV_NAMT": "พิษณุโลก", "PROV_NAME": "PHITSANULOK", "AMP_NAMT": "นครไทย", "AMP_NAME": "NAKHON THAI", "TAM_NAMT": "นครไทย", "TAM_NAME": "NAKHON THAI", "YEAR": 2007, "MALE": 202, "FEMALE": 222, "TOTAL": 424, "HOUSE": 2, "VERSION": "10.2" }, "geometry": { "type": "Point", "coordinates": [ 100.83213956420153, 17.158827546914484 ] } },
{ "type": "Feature", "properties": { "POLYTYPE": 1, "PROV_CODE": 65, "AMP_CODE": 5, "TAM_CODE": 7, "PROV_NAMT": "พิษณุโลก", "PROV_NAME": "PHITSANULOK", "AMP_NAMT": "บางกระทุ่ม", "AMP_NAME": "BANG KRATHUM", "TAM_NAMT": "นครป่าหมาก", "TAM_NAME": "NAKHON PA MAK", "YEAR": 2007, "MALE": 3178, "FEMALE": 3354, "TOTAL": 6532, "HOUSE": 1720, "VERSION": "10.2" }, "geometry": { "type": "Point", "coordinates": [ 100.36966299631108, 16.619163566804868 ] } },
{ "type": "Feature", "properties": { "POLYTYPE": 1, "PROV_CODE": 65, "AMP_CODE": 9, "TAM_CODE": 3, "PROV_NAMT": "พิษณุโลก", "PROV_NAME": "PHITSANULOK", "AMP_NAMT": "เนินมะปราง", "AMP_NAME": "NOEN MAPRANG", "TAM_NAMT": "ไทรย้อย", "TAM_NAME": "SAI YOI", "YEAR": 2007, "MALE": 4337, "FEMALE": 4359, "TOTAL": 8696, "HOUSE": 2788, "VERSION": "10.2" }, "geometry": { "type": "Point", "coordinates": [ 100.64155239670464, 16.450119356925576 ] } },
{ "type": "Feature", "properties": { "POLYTYPE": 1, "PROV_CODE": 65, "AMP_CODE": 9, "TAM_CODE": 2, "PROV_NAMT": "พิษณุโลก", "PROV_NAME": "PHITSANULOK", "AMP_NAMT": "เนินมะปราง", "AMP_NAME": "NOEN MAPRANG", "TAM_NAMT": "บ้านมุง", "TAM_NAME": "BAN MUNG", "YEAR": 2007, "MALE": 3528, "FEMALE": 3393, "TOTAL": 6921, "HOUSE": 2095, "VERSION": "10.2" }, "geometry": { "type": "Point", "coordinates": [ 100.74996539214507, 16.567981688473338 ] } },
{ "type": "Feature", "properties": { "POLYTYPE": 1, "PROV_CODE": 65, "AMP_CODE": 2, "TAM_CODE": 6, "PROV_NAMT": "พิษณุโลก", "PROV_NAME": "PHITSANULOK", "AMP_NAMT": "นครไทย", "AMP_NAME": "NAKHON THAI", "TAM_NAMT": "นครชุม", "TAM_NAME": "NAKHON CHUM", "YEAR": 2007, "MALE": 1594, "FEMALE": 1574, "TOTAL": 3168, "HOUSE": 925, "VERSION": "10.2" }, "geometry": { "type": "Point", "coordinates": [ 100.82070373463523, 17.275712318617156 ] } },
{ "type": "Feature", "properties": { "POLYTYPE": 1, "PROV_CODE": 65, "AMP_CODE": 1, "TAM_CODE": 10, "PROV_NAMT": "พิษณุโลก", "PROV_NAME": "PHITSANULOK", "AMP_NAMT": "เมืองพิษณุโลก", "AMP_NAME": "MUEANG PHITSANULOK", "TAM_NAMT": "ปากโทก", "TAM_NAME": "PAK THOK", "YEAR": 2007, "MALE": 2178, "FEMALE": 2404, "TOTAL": 4582, "HOUSE": 1646, "VERSION": "10.2" }, "geometry": { "type": "Point", "coordinates": [ 100.25838565667857, 16.888463259756147 ] } },
{ "type": "Feature", "properties": { "POLYTYPE": 1, "PROV_CODE": 65, "AMP_CODE": 3, "TAM_CODE": 2, "PROV_NAMT": "พิษณุโลก", "PROV_NAME": "PHITSANULOK", "AMP_NAMT": "ชาติตระการ", "AMP_NAME": "CHAT TRAKAN", "TAM_NAMT": "ชาติตระการ", "TAM_NAME": "CHAT TRAKAN", "YEAR": 2007, "MALE": 2341, "FEMALE": 2281, "TOTAL": 4622, "HOUSE": 1413, "VERSION": "10.2" }, "geometry": { "type": "Point", "coordinates": [ 100.69412483580325, 17.335037030735784 ] } },
{ "type": "Feature", "properties": { "POLYTYPE": 1, "PROV_CODE": 65, "AMP_CODE": 5, "TAM_CODE": 2, "PROV_NAMT": "พิษณุโลก", "PROV_NAME": "PHITSANULOK", "AMP_NAMT": "บางกระทุ่ม", "AMP_NAME": "BANG KRATHUM", "TAM_NAMT": "บ้านไร่", "TAM_NAME": "BAN RAI", "YEAR": 2007, "MALE": 2232, "FEMALE": 2348, "TOTAL": 4580, "HOUSE": 1335, "VERSION": "10.2" }, "geometry": { "type": "Point", "coordinates": [ 100.24955235908884, 16.619144085106441 ] } },
{ "type": "Feature", "properties": { "POLYTYPE": 1, "PROV_CODE": 65, "AMP_CODE": 1, "TAM_CODE": 17, "PROV_NAMT": "พิษณุโลก", "PROV_NAME": "PHITSANULOK", "AMP_NAMT": "เมืองพิษณุโลก", "AMP_NAME": "MUEANG PHITSANULOK", "TAM_NAMT": "อรัญญิก", "TAM_NAME": "ARANYIK", "YEAR": 2007, "MALE": 15680, "FEMALE": 13389, "TOTAL": 29069, "HOUSE": 11882, "VERSION": "10.2" }, "geometry": { "type": "Point", "coordinates": [ 100.29356737208988, 16.804375797001327 ] } },
{ "type": "Feature", "properties": { "POLYTYPE": 1, "PROV_CODE": 65, "AMP_CODE": 1, "TAM_CODE": 7, "PROV_NAMT": "พิษณุโลก", "PROV_NAME": "PHITSANULOK", "AMP_NAMT": "เมืองพิษณุโลก", "AMP_NAME": "MUEANG PHITSANULOK", "TAM_NAMT": "สมอแข", "TAM_NAME": "SAMO KHAE", "YEAR": 2007, "MALE": 6844, "FEMALE": 6615, "TOTAL": 13459, "HOUSE": 6125, "VERSION": "10.2" }, "geometry": { "type": "Point", "coordinates": [ 100.35192641106485, 16.833589096517549 ] } },
{ "type": "Feature", "properties": { "POLYTYPE": 1, "PROV_CODE": 65, "AMP_CODE": 1, "TAM_CODE": 6, "PROV_NAMT": "พิษณุโลก", "PROV_NAME": "PHITSANULOK", "AMP_NAMT": "เมืองพิษณุโลก", "AMP_NAME": "MUEANG PHITSANULOK", "TAM_NAMT": "ท่าโพธิ์", "TAM_NAME": "THA PHO", "YEAR": 2007, "MALE": 6421, "FEMALE": 8797, "TOTAL": 15218, "HOUSE": 6171, "VERSION": "10.2" }, "geometry": { "type": "Point", "coordinates": [ 100.18652128523, 16.761978205375868 ] } },
{ "type": "Feature", "properties": { "POLYTYPE": 1, "PROV_CODE": 65, "AMP_CODE": 2, "TAM_CODE": 9, "PROV_NAMT": "พิษณุโลก", "PROV_NAME": "PHITSANULOK", "AMP_NAMT": "นครไทย", "AMP_NAME": "NAKHON THAI", "TAM_NAMT": "บ่อโพธิ์", "TAM_NAME": "BO PHO", "YEAR": 2007, "MALE": 3526, "FEMALE": 3480, "TOTAL": 7006, "HOUSE": 1965, "VERSION": "10.2" }, "geometry": { "type": "Point", "coordinates": [ 101.01552994835494, 17.200065004057354 ] } },
{ "type": "Feature", "properties": { "POLYTYPE": 1, "PROV_CODE": 65, "AMP_CODE": 8, "TAM_CODE": 1, "PROV_NAMT": "พิษณุโลก", "PROV_NAME": "PHITSANULOK", "AMP_NAMT": "วังทอง", "AMP_NAME": "WANG THONG", "TAM_NAMT": "วังทอง", "TAM_NAME": "WANG THONG", "YEAR": 2007, "MALE": 6535, "FEMALE": 7040, "TOTAL": 13575, "HOUSE": 4847, "VERSION": "10.2" }, "geometry": { "type": "Point", "coordinates": [ 100.40611692148524, 16.824122871748013 ] } },
{ "type": "Feature", "properties": { "POLYTYPE": 1, "PROV_CODE": 65, "AMP_CODE": 1, "TAM_CODE": 8, "PROV_NAMT": "พิษณุโลก", "PROV_NAME": "PHITSANULOK", "AMP_NAMT": "เมืองพิษณุโลก", "AMP_NAME": "MUEANG PHITSANULOK", "TAM_NAMT": "ดอนทอง", "TAM_NAME": "DON THONG", "YEAR": 2007, "MALE": 6077, "FEMALE": 6450, "TOTAL": 12527, "HOUSE": 4539, "VERSION": "10.2" }, "geometry": { "type": "Point", "coordinates": [ 100.41420210971462, 16.90845545037768 ] } },
{ "type": "Feature", "properties": { "POLYTYPE": 1, "PROV_CODE": 65, "AMP_CODE": 7, "TAM_CODE": 5, "PROV_NAMT": "พิษณุโลก", "PROV_NAME": "PHITSANULOK", "AMP_NAMT": "วัดโบสถ์", "AMP_NAME": "WAT BOT", "TAM_NAMT": "หินลาด", "TAM_NAME": "HIN LAT", "YEAR": 2007, "MALE": 2264, "FEMALE": 2327, "TOTAL": 4591, "HOUSE": 1452, "VERSION": "10.2" }, "geometry": { "type": "Point", "coordinates": [ 100.31948424285777, 17.164096266045878 ] } },
{ "type": "Feature", "properties": { "POLYTYPE": 1, "PROV_CODE": 65, "AMP_CODE": 4, "TAM_CODE": 1, "PROV_NAMT": "พิษณุโลก", "PROV_NAME": "PHITSANULOK", "AMP_NAMT": "บางระกำ", "AMP_NAME": "BANG RAKAM", "TAM_NAMT": "บางระกำ", "TAM_NAME": "BANG RAKAM", "YEAR": 2007, "MALE": 6902, "FEMALE": 7129, "TOTAL": 14031, "HOUSE": 3912, "VERSION": "10.2" }, "geometry": { "type": "Point", "coordinates": [ 100.12105815318489, 16.736906982999308 ] } },
{ "type": "Feature", "properties": { "POLYTYPE": 1, "PROV_CODE": 65, "AMP_CODE": 8, "TAM_CODE": 3, "PROV_NAMT": "พิษณุโลก", "PROV_NAME": "PHITSANULOK", "AMP_NAMT": "วังทอง", "AMP_NAME": "WANG THONG", "TAM_NAMT": "แม่ระกา", "TAM_NAME": "MAE RAKA", "YEAR": 2007, "MALE": 3478, "FEMALE": 3645, "TOTAL": 7123, "HOUSE": 1950, "VERSION": "10.2" }, "geometry": { "type": "Point", "coordinates": [ 100.38012351376263, 16.696821498320713 ] } },
{ "type": "Feature", "properties": { "POLYTYPE": 1, "PROV_CODE": 65, "AMP_CODE": 5, "TAM_CODE": 3, "PROV_NAMT": "พิษณุโลก", "PROV_NAME": "PHITSANULOK", "AMP_NAMT": "บางกระทุ่ม", "AMP_NAME": "BANG KRATHUM", "TAM_NAMT": "โคกสลุด", "TAM_NAME": "KHOK SALUT", "YEAR": 2007, "MALE": 1551, "FEMALE": 1702, "TOTAL": 3253, "HOUSE": 914, "VERSION": "10.2" }, "geometry": { "type": "Point", "coordinates": [ 100.25001461625837, 16.576859323043266 ] } },
{ "type": "Feature", "properties": { "POLYTYPE": 1, "PROV_CODE": 65, "AMP_CODE": 8, "TAM_CODE": 2, "PROV_NAMT": "พิษณุโลก", "PROV_NAME": "PHITSANULOK", "AMP_NAMT": "วังทอง", "AMP_NAME": "WANG THONG", "TAM_NAMT": "พันชาลี", "TAM_NAME": "PHAN CHALI", "YEAR": 2007, "MALE": 4836, "FEMALE": 4869, "TOTAL": 9705, "HOUSE": 2798, "VERSION": "10.2" }, "geometry": { "type": "Point", "coordinates": [ 100.50970875658895, 16.608561108111036 ] } },
{ "type": "Feature", "properties": { "POLYTYPE": 1, "PROV_CODE": 65, "AMP_CODE": 8, "TAM_CODE": 11, "PROV_NAMT": "พิษณุโลก", "PROV_NAME": "PHITSANULOK", "AMP_NAMT": "วังทอง", "AMP_NAME": "WANG THONG", "TAM_NAMT": "ดินทอง", "TAM_NAME": "DIN THONG", "YEAR": 2007, "MALE": 3162, "FEMALE": 3231, "TOTAL": 6393, "HOUSE": 1988, "VERSION": "10.2" }, "geometry": { "type": "Point", "coordinates": [ 100.45745792336419, 16.773338855367445 ] } },
{ "type": "Feature", "properties": { "POLYTYPE": 1, "PROV_CODE": 65, "AMP_CODE": 1, "TAM_CODE": 1, "PROV_NAMT": "พิษณุโลก", "PROV_NAME": "PHITSANULOK", "AMP_NAMT": "เมืองพิษณุโลก", "AMP_NAME": "MUEANG PHITSANULOK", "TAM_NAMT": "ในเมือง", "TAM_NAME": "NAI MUEANG", "YEAR": 2007, "MALE": 36046, "FEMALE": 42093, "TOTAL": 78139, "HOUSE": 31303, "VERSION": "10.2" }, "geometry": { "type": "Point", "coordinates": [ 100.2598318880127, 16.81441228231887 ] } },
{ "type": "Feature", "properties": { "POLYTYPE": 1, "PROV_CODE": 65, "AMP_CODE": 6, "TAM_CODE": 5, "PROV_NAMT": "พิษณุโลก", "PROV_NAME": "PHITSANULOK", "AMP_NAMT": "พรหมพิราม", "AMP_NAME": "PHROM PHIRAM", "TAM_NAMT": "หอกลอง", "TAM_NAME": "HO KLONG", "YEAR": 2007, "MALE": 2307, "FEMALE": 2395, "TOTAL": 4702, "HOUSE": 1492, "VERSION": "10.2" }, "geometry": { "type": "Point", "coordinates": [ 100.24756181972127, 16.982011045409653 ] } },
{ "type": "Feature", "properties": { "POLYTYPE": 1, "PROV_CODE": 65, "AMP_CODE": 2, "TAM_CODE": 11, "PROV_NAMT": "พิษณุโลก", "PROV_NAME": "PHITSANULOK", "AMP_NAMT": "นครไทย", "AMP_NAME": "NAKHON THAI", "TAM_NAMT": "ห้วยเฮี้ย", "TAM_NAME": "HUAI HIA", "YEAR": 2007, "MALE": 3250, "FEMALE": 3109, "TOTAL": 6359, "HOUSE": 1888, "VERSION": "10.2" }, "geometry": { "type": "Point", "coordinates": [ 100.93131957666232, 16.91406172209998 ] } },
{ "type": "Feature", "properties": { "POLYTYPE": 1, "PROV_CODE": 65, "AMP_CODE": 3, "TAM_CODE": 4, "PROV_NAMT": "พิษณุโลก", "PROV_NAME": "PHITSANULOK", "AMP_NAMT": "ชาติตระการ", "AMP_NAME": "CHAT TRAKAN", "TAM_NAMT": "บ้านดง", "TAM_NAME": "BAN DONG", "YEAR": 2007, "MALE": 4041, "FEMALE": 3952, "TOTAL": 7993, "HOUSE": 2669, "VERSION": "10.2" }, "geometry": { "type": "Point", "coordinates": [ 100.51090177007259, 17.366449277049963 ] } },
{ "type": "Feature", "properties": { "POLYTYPE": 1, "PROV_CODE": 65, "AMP_CODE": 7, "TAM_CODE": 2, "PROV_NAMT": "พิษณุโลก", "PROV_NAME": "PHITSANULOK", "AMP_NAMT": "วัดโบสถ์", "AMP_NAME": "WAT BOT", "TAM_NAMT": "ท่างาม", "TAM_NAME": "THA NGAM", "YEAR": 2007, "MALE": 476, "FEMALE": 533, "TOTAL": 1009, "HOUSE": 311, "VERSION": "10.2" }, "geometry": { "type": "Point", "coordinates": [ 100.35138019568308, 17.016565548333229 ] } },
{ "type": "Feature", "properties": { "POLYTYPE": 1, "PROV_CODE": 65, "AMP_CODE": 1, "TAM_CODE": 16, "PROV_NAMT": "พิษณุโลก", "PROV_NAME": "PHITSANULOK", "AMP_NAMT": "เมืองพิษณุโลก", "AMP_NAME": "MUEANG PHITSANULOK", "TAM_NAMT": "มะขามสูง", "TAM_NAME": "MAKHAM SUNG", "YEAR": 2007, "MALE": 2699, "FEMALE": 2856, "TOTAL": 5555, "HOUSE": 2045, "VERSION": "10.2" }, "geometry": { "type": "Point", "coordinates": [ 100.25597345818532, 16.926146701128729 ] } },
{ "type": "Feature", "properties": { "POLYTYPE": 1, "PROV_CODE": 65, "AMP_CODE": 3, "TAM_CODE": 3, "PROV_NAMT": "พิษณุโลก", "PROV_NAME": "PHITSANULOK", "AMP_NAMT": "ชาติตระการ", "AMP_NAME": "CHAT TRAKAN", "TAM_NAMT": "สวนเมี่ยง", "TAM_NAME": "SUAN MIANG", "YEAR": 2007, "MALE": 2890, "FEMALE": 2759, "TOTAL": 5649, "HOUSE": 1662, "VERSION": "10.2" }, "geometry": { "type": "Point", "coordinates": [ 100.53268923576562, 17.19070940742612 ] } },
{ "type": "Feature", "properties": { "POLYTYPE": 1, "PROV_CODE": 65, "AMP_CODE": 4, "TAM_CODE": 7, "PROV_NAMT": "พิษณุโลก", "PROV_NAME": "PHITSANULOK", "AMP_NAMT": "บางระกำ", "AMP_NAME": "BANG RAKAM", "TAM_NAMT": "ชุมแสงสงคราม", "TAM_NAME": "CHUM SAENG SONGKHRAM", "YEAR": 2007, "MALE": 3762, "FEMALE": 3896, "TOTAL": 7658, "HOUSE": 2212, "VERSION": "10.2" }, "geometry": { "type": "Point", "coordinates": [ 100.0542913696205, 16.83200210263794 ] } },
{ "type": "Feature", "properties": { "POLYTYPE": 1, "PROV_CODE": 65, "AMP_CODE": 1, "TAM_CODE": 13, "PROV_NAMT": "พิษณุโลก", "PROV_NAME": "PHITSANULOK", "AMP_NAMT": "เมืองพิษณุโลก", "AMP_NAME": "MUEANG PHITSANULOK", "TAM_NAMT": "บ้านกร่าง", "TAM_NAME": "BAN KRANG", "YEAR": 2007, "MALE": 5766, "FEMALE": 6174, "TOTAL": 11940, "HOUSE": 4400, "VERSION": "10.2" }, "geometry": { "type": "Point", "coordinates": [ 100.17898371422189, 16.859547766038443 ] } },
{ "type": "Feature", "properties": { "POLYTYPE": 1, "PROV_CODE": 65, "AMP_CODE": 1, "TAM_CODE": 11, "PROV_NAMT": "พิษณุโลก", "PROV_NAME": "PHITSANULOK", "AMP_NAMT": "เมืองพิษณุโลก", "AMP_NAME": "MUEANG PHITSANULOK", "TAM_NAMT": "หัวรอ", "TAM_NAME": "HUA RO", "YEAR": 2007, "MALE": 8782, "FEMALE": 10110, "TOTAL": 18892, "HOUSE": 8126, "VERSION": "10.2" }, "geometry": { "type": "Point", "coordinates": [ 100.28223882568557, 16.869935945994321 ] } },
{ "type": "Feature", "properties": { "POLYTYPE": 1, "PROV_CODE": 65, "AMP_CODE": 9, "TAM_CODE": 6, "PROV_NAMT": "พิษณุโลก", "PROV_NAME": "PHITSANULOK", "AMP_NAMT": "เนินมะปราง", "AMP_NAME": "NOEN MAPRANG", "TAM_NAMT": "เนินมะปราง", "TAM_NAME": "NOEN MAPRANG", "YEAR": 2007, "MALE": 1726, "FEMALE": 1812, "TOTAL": 3538, "HOUSE": 1154, "VERSION": "10.2" }, "geometry": { "type": "Point", "coordinates": [ 100.62355195906215, 16.578210481396564 ] } },
{ "type": "Feature", "properties": { "POLYTYPE": 1, "PROV_CODE": 65, "AMP_CODE": 5, "TAM_CODE": 4, "PROV_NAMT": "พิษณุโลก", "PROV_NAME": "PHITSANULOK", "AMP_NAMT": "บางกระทุ่ม", "AMP_NAME": "BANG KRATHUM", "TAM_NAMT": "สนามคลี", "TAM_NAME": "SANAM KHLI", "YEAR": 2007, "MALE": 1226, "FEMALE": 1256, "TOTAL": 2482, "HOUSE": 673, "VERSION": "10.2" }, "geometry": { "type": "Point", "coordinates": [ 100.25159311438915, 16.544671438480389 ] } },
{ "type": "Feature", "properties": { "POLYTYPE": 1, "PROV_CODE": 65, "AMP_CODE": 9, "TAM_CODE": 1, "PROV_NAMT": "พิษณุโลก", "PROV_NAME": "PHITSANULOK", "AMP_NAMT": "เนินมะปราง", "AMP_NAME": "NOEN MAPRANG", "TAM_NAMT": "ชมพู", "TAM_NAME": "CHOMPHU", "YEAR": 2007, "MALE": 6730, "FEMALE": 6362, "TOTAL": 13092, "HOUSE": 3952, "VERSION": "10.2" }, "geometry": { "type": "Point", "coordinates": [ 100.70606162415474, 16.682145197431492 ] } },
{ "type": "Feature", "properties": { "POLYTYPE": 1, "PROV_CODE": 65, "AMP_CODE": 6, "TAM_CODE": 7, "PROV_NAMT": "พิษณุโลก", "PROV_NAME": "PHITSANULOK", "AMP_NAMT": "พรหมพิราม", "AMP_NAME": "PHROM PHIRAM", "TAM_NAMT": "ตลุกเทียม", "TAM_NAME": "TALUK THIAM", "YEAR": 2007, "MALE": 2283, "FEMALE": 2376, "TOTAL": 4659, "HOUSE": 1416, "VERSION": "10.2" }, "geometry": { "type": "Point", "coordinates": [ 100.02942782410236, 17.148125927269998 ] } },
{ "type": "Feature", "properties": { "POLYTYPE": 1, "PROV_CODE": 65, "AMP_CODE": 1, "TAM_CODE": 4, "PROV_NAMT": "พิษณุโลก", "PROV_NAME": "PHITSANULOK", "AMP_NAMT": "เมืองพิษณุโลก", "AMP_NAME": "MUEANG PHITSANULOK", "TAM_NAMT": "วัดพริก", "TAM_NAME": "WAT PHRIK", "YEAR": 2007, "MALE": 559, "FEMALE": 616, "TOTAL": 1175, "HOUSE": 366, "VERSION": "10.2" }, "geometry": { "type": "Point", "coordinates": [ 100.23313294833845, 16.712556855647666 ] } },
{ "type": "Feature", "properties": { "POLYTYPE": 1, "PROV_CODE": 65, "AMP_CODE": 5, "TAM_CODE": 8, "PROV_NAMT": "พิษณุโลก", "PROV_NAME": "PHITSANULOK", "AMP_NAMT": "บางกระทุ่ม", "AMP_NAME": "BANG KRATHUM", "TAM_NAMT": "เนินกุ่ม", "TAM_NAME": "NOEN KUM", "YEAR": 2007, "MALE": 4429, "FEMALE": 4698, "TOTAL": 9127, "HOUSE": 2455, "VERSION": "10.2" }, "geometry": { "type": "Point", "coordinates": [ 100.43018197832276, 16.552342990254395 ] } },
{ "type": "Feature", "properties": { "POLYTYPE": 1, "PROV_CODE": 65, "AMP_CODE": 3, "TAM_CODE": 1, "PROV_NAMT": "พิษณุโลก", "PROV_NAME": "PHITSANULOK", "AMP_NAMT": "ชาติตระการ", "AMP_NAME": "CHAT TRAKAN", "TAM_NAMT": "ป่าแดง", "TAM_NAME": "PA DAENG", "YEAR": 2007, "MALE": 2237, "FEMALE": 2295, "TOTAL": 4532, "HOUSE": 1554, "VERSION": "10.2" }, "geometry": { "type": "Point", "coordinates": [ 100.56649964121803, 17.289833355359896 ] } },
{ "type": "Feature", "properties": { "POLYTYPE": 1, "PROV_CODE": 65, "AMP_CODE": 4, "TAM_CODE": 10, "PROV_NAMT": "พิษณุโลก", "PROV_NAME": "PHITSANULOK", "AMP_NAMT": "บางระกำ", "AMP_NAME": "BANG RAKAM", "TAM_NAMT": "ท่านางงาม", "TAM_NAME": "THA NANG NGAM", "YEAR": 2007, "MALE": 2696, "FEMALE": 2793, "TOTAL": 5489, "HOUSE": 1689, "VERSION": "10.2" }, "geometry": { "type": "Point", "coordinates": [ 100.11918538172532, 16.806802585449422 ] } },
{ "type": "Feature", "properties": { "POLYTYPE": 1, "PROV_CODE": 65, "AMP_CODE": 6, "TAM_CODE": 11, "PROV_NAMT": "พิษณุโลก", "PROV_NAME": "PHITSANULOK", "AMP_NAMT": "พรหมพิราม", "AMP_NAME": "PHROM PHIRAM", "TAM_NAMT": "ทับยายเชียง", "TAM_NAME": "THAP YAI CHIANG", "YEAR": 2007, "MALE": 2792, "FEMALE": 2747, "TOTAL": 5539, "HOUSE": 1638, "VERSION": "10.2" }, "geometry": { "type": "Point", "coordinates": [ 100.27775796256944, 17.090566196227879 ] } },
{ "type": "Feature", "properties": { "POLYTYPE": 1, "PROV_CODE": 65, "AMP_CODE": 4, "TAM_CODE": 9, "PROV_NAMT": "พิษณุโลก", "PROV_NAME": "PHITSANULOK", "AMP_NAMT": "บางระกำ", "AMP_NAME": "BANG RAKAM", "TAM_NAMT": "บ่อทอง", "TAM_NAME": "BO THONG", "YEAR": 2007, "MALE": 2147, "FEMALE": 2179, "TOTAL": 4326, "HOUSE": 1142, "VERSION": "10.2" }, "geometry": { "type": "Point", "coordinates": [ 100.13514798445316, 16.622968499396276 ] } },
{ "type": "Feature", "properties": { "POLYTYPE": 1, "PROV_CODE": 65, "AMP_CODE": 8, "TAM_CODE": 8, "PROV_NAMT": "พิษณุโลก", "PROV_NAME": "PHITSANULOK", "AMP_NAMT": "วังทอง", "AMP_NAME": "WANG THONG", "TAM_NAMT": "วังนกแอ่น", "TAM_NAME": "WANG NOK AEN", "YEAR": 2007, "MALE": 8537, "FEMALE": 7906, "TOTAL": 16443, "HOUSE": 5430, "VERSION": "10.2" }, "geometry": { "type": "Point", "coordinates": [ 100.69390168130866, 16.799032622085591 ] } },
{ "type": "Feature", "properties": { "POLYTYPE": 1, "PROV_CODE": 65, "AMP_CODE": 7, "TAM_CODE": 4, "PROV_NAMT": "พิษณุโลก", "PROV_NAME": "PHITSANULOK", "AMP_NAMT": "วัดโบสถ์", "AMP_NAME": "WAT BOT", "TAM_NAMT": "บ้านยาง", "TAM_NAME": "BAN YANG", "YEAR": 2007, "MALE": 3241, "FEMALE": 3258, "TOTAL": 6499, "HOUSE": 1951, "VERSION": "10.2" }, "geometry": { "type": "Point", "coordinates": [ 100.40540489195945, 17.043035208875192 ] } },
{ "type": "Feature", "properties": { "POLYTYPE": 1, "PROV_CODE": 65, "AMP_CODE": 4, "TAM_CODE": 4, "PROV_NAMT": "พิษณุโลก", "PROV_NAME": "PHITSANULOK", "AMP_NAMT": "บางระกำ", "AMP_NAME": "BANG RAKAM", "TAM_NAMT": "วังอิทก", "TAM_NAME": "WANG I THOK", "YEAR": 2007, "MALE": 2206, "FEMALE": 2241, "TOTAL": 4447, "HOUSE": 1222, "VERSION": "10.2" }, "geometry": { "type": "Point", "coordinates": [ 100.17779999682642, 16.656890587304822 ] } },
{ "type": "Feature", "properties": { "POLYTYPE": 1, "PROV_CODE": 65, "AMP_CODE": 3, "TAM_CODE": 6, "PROV_NAMT": "พิษณุโลก", "PROV_NAME": "PHITSANULOK", "AMP_NAMT": "ชาติตระการ", "AMP_NAME": "CHAT TRAKAN", "TAM_NAMT": "ท่าสะแก", "TAM_NAME": "THA SAKAE", "YEAR": 2007, "MALE": 2107, "FEMALE": 2041, "TOTAL": 4148, "HOUSE": 1360, "VERSION": "10.2" }, "geometry": { "type": "Point", "coordinates": [ 100.66775195718016, 17.239288244667335 ] } },
{ "type": "Feature", "properties": { "POLYTYPE": 1, "PROV_CODE": 65, "AMP_CODE": 2, "TAM_CODE": 7, "PROV_NAMT": "พิษณุโลก", "PROV_NAME": "PHITSANULOK", "AMP_NAMT": "นครไทย", "AMP_NAME": "NAKHON THAI", "TAM_NAMT": "น้ำกุ่ม", "TAM_NAME": "NAM KUM", "YEAR": 2007, "MALE": 1293, "FEMALE": 1296, "TOTAL": 2589, "HOUSE": 671, "VERSION": "10.2" }, "geometry": { "type": "Point", "coordinates": [ 100.86673014604602, 17.390602165471893 ] } }
]
}
